$GPGGA,080450,4700.0043,N,00237.5817,E,2,06,2.2,482.8,M,48.4,M,,*49
$GPGGA,080452,4659.9099,N,00238.1028,E,1,07,2.8,291.5,M,48.4,M,,*46
$GPGGA,080452,4659.9098,N,00238.1215,E,1,03,1.4,454.5,M,47.4,M,,*40
$GPGGA,080451,4659.9677,N,00237.9041,E,2,08,1.7,429.3,M,48.4,M,,*48
$GPGGA,080451,4659.9688,N,00237.8738,E,1,09,1.3,221.8,M,48.4,M,,*43
$GPGGA,085634,4700.0041,N,00237.5599,E,2,08,1.9,462.9,M,48.4,M,,*4C
$GPGGA,085634,4659.8970,N,00238.1312,E,2,10,1.8,267.5,M,48.4,M,,*4B
$GPGGA,085633,4659.9102,N,00238.1280,E,1,04,1.0,459.9,M,47.4,M,,*4C
$GPGGA,085633,4659.9607,N,00237.9397,E,2,08,1.7,432.3,M,48.4,M,,*4E
$GPGGA,085633,4659.9503,N,00237.9157,E,1,08,2.4,240.0,M,48.4,M,,*44
$GPGGA,090145,4700.0009,N,00237.5865,E,2,08,1.5,471.1,M,48.4,M,,*4D
$GPGGA,090142,4659.9045,N,00238.1418,E,1,10,2.3,272.8,M,48.4,M,,*48
$GPGGA,090142,4659.9135,N,00238.1408,E,1,04,1.0,456.9,M,47.4,M,,*44
$GPGGA,090143,4659.9616,N,00237.9524,E,2,08,1.5,408.8,M,48.4,M,,*44
$GPGGA,090142,4659.9626,N,00237.9199,E,1,07,4.5,213.6,M,48.4,M,,*4F
$GPGGA,090153,4700.0002,N,00237.5869,E,2,08,1.8,465.9,M,48.4,M,,*4D
$GPGGA,090151,4659.9063,N,00238.1425,E,2,09,2.2,274.1,M,48.4,M,,*45
$GPGGA,090151,4659.9128,N,00238.1370,E,1,03,1.0,456.8,M,47.4,M,,*44
$GPGGA,090152,4659.9591,N,00237.9476,E,2,09,1.6,422.1,M,48.4,M,,*4D
$GPGGA,090152,4659.9626,N,00237.9237,E,1,05,2.7,214.9,M,48.4,M,,*47
$GPGGA,090202,4700.0000,N,00237.5857,E,2,08,1.6,468.8,M,48.4,M,,*47
$GPGGA,090200,4659.9063,N,00238.1406,E,2,07,2.5,268.6,M,48.4,M,,*40
$GPGGA,090200,4659.9116,N,00238.1396,E,1,02,1.4,454.8,M,47.4,M,,*41
$GPGGA,090201,4659.9587,N,00237.9507,E,2,09,1.6,401.8,M,48.4,M,,*40
$GPGGA,090200,4659.9616,N,00237.9263,E,1,07,1.6,216.3,M,48.4,M,,*49
$GPGGA,090211,4700.0005,N,00237.5837,E,2,08,1.6,471.2,M,48.4,M,,*44
$GPGGA,090209,4659.9083,N,00238.1429,E,2,10,2.4,267.9,M,48.4,M,,*4D
$GPGGA,090209,4659.9096,N,00238.1416,E,1,04,1.0,457.1,M,47.4,M,,*46
$GPGGA,090210,4659.9641,N,00237.9601,E,2,09,1.7,403.8,M,48.4,M,,*4F
$GPGGA,090210,4659.9626,N,00237.9292,E,1,07,6.2,215.6,M,48.4,M,,*40
$GPGGA,090221,4700.0001,N,00237.5838,E,2,08,1.6,472.3,M,48.4,M,,*4E
$GPGGA,090219,4659.9114,N,00238.1291,E,2,09,2.2,268.4,M,48.4,M,,*4A
$GPGGA,090219,4659.9080,N,00238.1413,E,1,04,1.0,457.2,M,47.4,M,,*46
$GPGGA,090220,4659.9223,N,00237.8978,E,2,09,1.4,576.7,M,48.4,M,,*43
$GPGGA,090220,4659.9631,N,00237.9307,E,1,07,3.7,214.5,M,48.4,M,,*4A
$GPGGA,090234,4659.9986,N,00237.5838,E,2,08,1.7,470.0,M,48.4,M,,*48
$GPGGA,090231,4659.9095,N,00238.1305,E,2,10,2.3,266.9,M,48.4,M,,*4E
$GPGGA,090231,4659.9126,N,00238.1420,E,1,03,1.0,460.0,M,47.4,M,,*40
$GPGGA,090232,4659.9583,N,00237.9637,E,2,08,1.5,393.4,M,48.4,M,,*46
$GPGGA,090232,4659.9596,N,00237.9278,E,1,06,3.3,213.8,M,48.4,M,,*41
$GPGGA,090245,4659.9978,N,00237.5829,E,2,08,2.2,471.8,M,48.4,M,,*40
$GPGGA,090242,4659.9093,N,00238.1420,E,2,08,1.7,265.4,M,48.4,M,,*4C
$GPGGA,090242,4659.9137,N,00238.1385,E,1,03,1.0,458.9,M,47.4,M,,*4E
$GPGGA,090243,4659.9513,N,00237.9532,E,2,09,1.6,775.1,M,48.4,M,,*44
$GPGGA,090243,4659.9511,N,00237.9581,E,1,08,4.8,216.4,M,48.4,M,,*42
$GPGGA,090255,4659.9973,N,00237.5824,E,2,08,1.7,473.0,M,48.4,M,,*4B
$GPGGA,090253,4659.9091,N,00238.1395,E,2,08,1.7,261.0,M,48.4,M,,*47
$GPGGA,090253,4659.9125,N,00238.1366,E,1,03,1.0,458.9,M,47.4,M,,*40
$GPGGA,090254,4659.9586,N,00237.9627,E,2,09,1.6,407.5,M,48.4,M,,*4B
$GPGGA,090254,4659.9655,N,00237.9498,E,1,08,2.6,224.4,M,48.4,M,,*47
$GPGGA,090308,4659.9968,N,00237.5795,E,2,08,1.5,472.0,M,48.4,M,,*4E
$GPGGA,090306,4659.9086,N,00238.1276,E,2,08,2.7,258.5,M,48.4,M,,*40
$GPGGA,090306,4659.9122,N,00238.1355,E,1,04,1.0,459.4,M,47.4,M,,*4D
$GPGGA,090306,4659.9485,N,00237.9451,E,2,09,1.4,711.4,M,48.4,M,,*4B
$GPGGA,090306,4659.9646,N,00237.9498,E,1,07,3.8,224.8,M,48.4,M,,*4F
$GPGGA,090319,4659.9985,N,00237.5790,E,2,08,1.7,473.1,M,48.4,M,,*4A
$GPGGA,090317,4659.9118,N,00238.1345,E,2,08,2.3,259.8,M,48.4,M,,*4F
$GPGGA,090317,4659.9116,N,00238.1339,E,1,03,1.1,459.9,M,47.4,M,,*4B
$GPGGA,090318,4659.9332,N,00237.9088,E,2,08,1.4,913.1,M,48.4,M,,*47
$GPGGA,090318,4659.9647,N,00237.9477,E,1,07,2.8,225.1,M,48.4,M,,*49
$GPGGA,090329,4659.9976,N,00237.5810,E,2,08,1.6,473.7,M,48.4,M,,*45
$GPGGA,090327,4659.9105,N,00238.1351,E,2,08,2.1,260.4,M,48.4,M,,*41
$GPGGA,090327,4659.9122,N,00238.1336,E,1,04,1.0,460.4,M,47.4,M,,*41
$GPGGA,090327,4659.9387,N,00237.8906,E,2,08,1.5,819.0,M,48.4,M,,*40
$GPGGA,090327,4659.9653,N,00237.9462,E,1,08,2.2,221.2,M,48.4,M,,*46
$GPGGA,090341,4659.9954,N,00237.5832,E,2,07,2.1,467.3,M,48.4,M,,*41
$GPGGA,090339,4659.9102,N,00238.1367,E,2,07,2.3,260.3,M,48.4,M,,*46
$GPGGA,090339,4659.9147,N,00238.1381,E,1,04,1.0,457.4,M,47.4,M,,*45
$GPGGA,090340,4659.9354,N,00237.9118,E,2,08,1.5,865.3,M,48.4,M,,*41
$GPGGA,090340,4659.9659,N,00237.9437,E,1,09,1.9,219.7,M,48.4,M,,*4A
$GPGGA,090353,4659.9984,N,00237.5833,E,2,08,1.4,467.5,M,48.4,M,,*41
$GPGGA,090351,4659.9087,N,00238.1326,E,2,09,1.9,260.9,M,48.4,M,,*4C
$GPGGA,090351,4659.9130,N,00238.1365,E,1,03,1.0,456.5,M,47.4,M,,*46
$GPGGA,090352,4659.9373,N,00237.9093,E,2,08,1.6,855.0,M,48.4,M,,*46
$GPGGA,090351,4659.9666,N,00237.9421,E,1,08,2.2,220.6,M,48.4,M,,*43
$GPGGA,090402,4659.9989,N,00237.5850,E,2,08,1.5,470.2,M,48.4,M,,*4A
$GPGGA,090400,4659.9095,N,00238.1372,E,2,08,1.9,263.7,M,48.4,M,,*41
$GPGGA,090400,4659.9138,N,00238.1412,E,1,04,1.0,457.7,M,47.4,M,,*4E
$GPGGA,090401,4659.9584,N,00237.9567,E,2,08,1.6,403.7,M,48.4,M,,*4F
$GPGGA,090401,4659.9674,N,00237.9411,E,1,08,2.2,225.0,M,48.4,M,,*42
$GPGGA,090411,4659.9979,N,00237.5851,E,2,07,1.5,469.6,M,48.4,M,,*45
$GPGGA,090409,4659.9085,N,00238.1397,E,2,09,2.2,262.9,M,48.4,M,,*44
$GPGGA,090409,4659.9152,N,00238.1399,E,1,04,1.0,456.5,M,47.4,M,,*4C
$GPGGA,090409,4659.9581,N,00237.9544,E,2,08,1.6,423.5,M,48.4,M,,*43
$GPGGA,090409,4659.9672,N,00237.9332,E,1,08,4.8,221.5,M,48.4,M,,*47
$GPGGA,090611,4659.9995,N,00237.5793,E,2,08,2.0,467.1,M,48.4,M,,*44
$GPGGA,090611,4659.9005,N,00238.1330,E,1,10,1.8,267.6,M,48.4,M,,*42
$GPGGA,090611,4659.9105,N,00238.1372,E,1,04,1.1,455.1,M,47.4,M,,*46
$GPGGA,090611,4659.9488,N,00237.9187,E,2,08,1.6,430.0,M,48.4,M,,*4C
$GPGGA,090611,4659.9551,N,00237.9165,E,1,08,2.5,230.0,M,48.4,M,,*40
$GPGGA,090612,4659.9996,N,00237.5793,E,2,08,2.0,466.8,M,48.4,M,,*4C
$GPGGA,090612,4659.9001,N,00238.1347,E,1,10,1.9,269.2,M,48.4,M,,*4E
$GPGGA,090612,4659.9106,N,00238.1371,E,1,04,1.1,454.9,M,47.4,M,,*4C
$GPGGA,090612,4659.9487,N,00237.9187,E,2,08,1.6,421.3,M,48.4,M,,*43
$GPGGA,090612,4659.9549,N,00237.9166,E,1,08,2.0,229.8,M,48.4,M,,*4C
$GPGGA,091538,4700.0011,N,00237.5841,E,2,08,2.8,471.8,M,48.4,M,,*4A
$GPGGA,091538,4659.9007,N,00238.1435,E,2,10,1.7,230.5,M,48.4,M,,*46
$GPGGA,091538,4659.9094,N,00238.1445,E,1,04,1.4,459.4,M,47.4,M,,*49
$GPGGA,091538,4659.9535,N,00237.8962,E,2,08,1.6,437.9,M,48.4,M,,*4E
$GPGGA,091538,4659.9298,N,00237.8931,E,1,07,2.7,133.3,M,48.4,M,,*4D
$GPGGA,091539,4700.0014,N,00237.5838,E,2,08,2.8,471.9,M,48.4,M,,*41
$GPGGA,091539,4659.9017,N,00238.1373,E,2,10,1.7,241.8,M,48.4,M,,*48
$GPGGA,091539,4659.9096,N,00238.1443,E,1,04,1.1,459.6,M,47.4,M,,*4B
$GPGGA,091539,4659.9534,N,00237.8961,E,2,08,1.6,438.1,M,48.4,M,,*4A
$GPGGA,091539,4659.9301,N,00237.8932,E,1,07,2.7,133.3,M,48.4,M,,*4E
$GPGGA,092200,4659.9913,N,00237.5744,E,2,08,1.9,463.9,M,48.4,M,,*40
$GPGGA,092200,4659.8888,N,00238.1712,E,1,09,3.6,266.6,M,48.4,M,,*49
$GPGGA,092200,4659.9093,N,00238.1362,E,1,04,1.5,451.6,M,47.4,M,,*48
$GPGGA,092200,4659.9383,N,00237.9262,E,2,09,1.5,426.4,M,48.4,M,,*4F
$GPGGA,092200,4659.9450,N,00237.9262,E,1,10,1.3,246.4,M,48.4,M,,*4B
$GPGGA,092320,4659.9947,N,00237.6012,E,2,07,3.0,459.7,M,48.4,M,,*46
$GPGGA,092318,4659.8937,N,00238.1532,E,1,09,3.4,249.1,M,48.4,M,,*4C
$GPGGA,092318,4659.9108,N,00238.1339,E,1,05,1.0,450.3,M,47.4,M,,*4D
$GPGGA,092319,4659.9464,N,00237.9215,E,2,07,1.8,425.1,M,48.4,M,,*4D
$GPGGA,092319,4659.9563,N,00237.9118,E,1,07,2.3,258.7,M,48.4,M,,*44
